{
"type": "FeatureCollection",
"name": "velo_disponibilite_restreint",
"crs": { "type": "name", "properties": { "name": "urn:ogc:def:crs:EPSG::3857" } },
"features": [
{ "type": "Feature", "properties": { "station_nom": "54 La Corniche", "station_latitude": 46.153549194299998, "station_longitude": -1.1769599915, "velos_disponibles": 0, "accroches_libres": 0, "nombre_emplacements": 8, "geo_point_2d": "[-1.17696 46.15355]" }, "geometry": { "type": "Point", "coordinates": [ -131018.587884051274159, 5804989.951883235946298 ] } },
{ "type": "Feature", "properties": { "station_nom": "10 Porte Maubec", "station_latitude": 46.158691406199999, "station_longitude": -1.1466779709, "velos_disponibles": 4, "accroches_libres": 4, "nombre_emplacements": 8, "geo_point_2d": "[-1.14668 46.15869]" }, "geometry": { "type": "Point", "coordinates": [ -127647.8337028309179, 5805815.974272969178855 ] } },
{ "type": "Feature", "properties": { "station_nom": "11 Porte Dauphine", "station_latitude": 46.167140960700003, "station_longitude": -1.1504080296000001, "velos_disponibles": 1, "accroches_libres": 7, "nombre_emplacements": 8, "geo_point_2d": "[-1.15041 46.16714]" }, "geometry": { "type": "Point", "coordinates": [ -128063.055403489837772, 5807174.09708250220865 ] } },
{ "type": "Feature", "properties": { "station_nom": "20 Faculté de Sciences 2", "station_latitude": 46.146636962899997, "station_longitude": -1.1578999758, "velos_disponibles": 2, "accroches_libres": 8, "nombre_emplacements": 10, "geo_point_2d": "[-1.1579  46.14664]" }, "geometry": { "type": "Point", "coordinates": [ -128896.838389531461871, 5803879.603657174855471 ] } },
{ "type": "Feature", "properties": { "station_nom": "05 Place de Verdun", "station_latitude": 46.1627349854, "station_longitude": -1.1525609493, "velos_disponibles": 4, "accroches_libres": 4, "nombre_emplacements": 8, "geo_point_2d": "[-1.15256 46.16273]" }, "geometry": { "type": "Point", "coordinates": [ -128302.392308695387328, 5806465.275603548623621 ] } },
{ "type": "Feature", "properties": { "station_nom": "26 Maison de la Charente-Maritime", "station_latitude": 46.1381874084, "station_longitude": -1.1523690224000001, "velos_disponibles": 2, "accroches_libres": 8, "nombre_emplacements": 10, "geo_point_2d": "[-1.15237 46.13819]" }, "geometry": { "type": "Point", "coordinates": [ -128281.241605444651213, 5802521.986635291017592 ] } },
{ "type": "Feature", "properties": { "station_nom": "04 Marché", "station_latitude": 46.161361694299998, "station_longitude": -1.1483216286, "velos_disponibles": 8, "accroches_libres": 0, "nombre_emplacements": 8, "geo_point_2d": "[-1.14832 46.16136]" }, "geometry": { "type": "Point", "coordinates": [ -127830.397667731915135, 5806245.086393926292658 ] } },
{ "type": "Feature", "properties": { "station_nom": "16 Gare 2", "station_latitude": 46.152770996100003, "station_longitude": -1.1467000246000001, "velos_disponibles": 3, "accroches_libres": 11, "nombre_emplacements": 14, "geo_point_2d": "[-1.1467  46.15277]" }, "geometry": { "type": "Point", "coordinates": [ -127650.060092646803241, 5804864.608924210071564 ] } },
{ "type": "Feature", "properties": { "station_nom": "06 Maison de la Mobilité 1", "station_latitude": 46.162357330299997, "station_longitude": -1.153613925, "velos_disponibles": 7, "accroches_libres": 3, "nombre_emplacements": 10, "geo_point_2d": "[-1.15361 46.16236]" }, "geometry": { "type": "Point", "coordinates": [ -128419.277774028334534, 5806405.807904303073883 ] } },
{ "type": "Feature", "properties": { "station_nom": "08 Vieux Port 1", "station_latitude": 46.156776428199997, "station_longitude": -1.1539860964, "velos_disponibles": 5, "accroches_libres": 9, "nombre_emplacements": 14, "geo_point_2d": "[-1.15399 46.15678]" }, "geometry": { "type": "Point", "coordinates": [ -128461.579180529777659, 5805509.019201444461942 ] } },
{ "type": "Feature", "properties": { "station_nom": "03 Arsenal 1", "station_latitude": 46.159881591800001, "station_longitude": -1.1487110853, "velos_disponibles": 2, "accroches_libres": 6, "nombre_emplacements": 8, "geo_point_2d": "[-1.14871 46.15988]" }, "geometry": { "type": "Point", "coordinates": [ -127873.812269141286379, 5806007.223919472657144 ] } },
{ "type": "Feature", "properties": { "station_nom": "21 Technoforum 1", "station_latitude": 46.148277282700001, "station_longitude": -1.1535861492, "velos_disponibles": 3, "accroches_libres": 5, "nombre_emplacements": 8, "geo_point_2d": "[-1.15359 46.14828]" }, "geometry": { "type": "Point", "coordinates": [ -128417.051384212449193, 5804143.117972189560533 ] } },
{ "type": "Feature", "properties": { "station_nom": "15 Office de tourisme (Simenon) 2", "station_latitude": 46.155029296899997, "station_longitude": -1.1501259804, "velos_disponibles": 5, "accroches_libres": 3, "nombre_emplacements": 8, "geo_point_2d": "[-1.15013 46.15503]" }, "geometry": { "type": "Point", "coordinates": [ -128031.885946067748591, 5805227.786996591836214 ] } },
{ "type": "Feature", "properties": { "station_nom": "24 EIGSI 1", "station_latitude": 46.140289306600003, "station_longitude": -1.1537588835000001, "velos_disponibles": 3, "accroches_libres": 5, "nombre_emplacements": 8, "geo_point_2d": "[-1.15376 46.14029]" }, "geometry": { "type": "Point", "coordinates": [ -128435.975697647314519, 5802859.363124913536012 ] } },
{ "type": "Feature", "properties": { "station_nom": "13 Médiathèque Michel Crépeau 1", "station_latitude": 46.153770446800003, "station_longitude": -1.1528638601000001, "velos_disponibles": 8, "accroches_libres": 0, "nombre_emplacements": 8, "geo_point_2d": "[-1.15286 46.15377]" }, "geometry": { "type": "Point", "coordinates": [ -128335.78815593336185, 5805025.30534671805799 ] } },
{ "type": "Feature", "properties": { "station_nom": "16 Gare 1", "station_latitude": 46.153419494600001, "station_longitude": -1.1453399658000001, "velos_disponibles": 0, "accroches_libres": 0, "nombre_emplacements": 14, "geo_point_2d": "[-1.14534 46.15342]" }, "geometry": { "type": "Point", "coordinates": [ -127498.665585167967947, 5804969.061266696080565 ] } },
{ "type": "Feature", "properties": { "station_nom": "22 Porte de Cougnes", "station_latitude": 46.162910461400003, "station_longitude": -1.1457469463000001, "velos_disponibles": 4, "accroches_libres": 6, "nombre_emplacements": 10, "geo_point_2d": "[-1.14575 46.16291]" }, "geometry": { "type": "Point", "coordinates": [ -127544.306576393195428, 5806494.205980219878256 ] } },
{ "type": "Feature", "properties": { "station_nom": "14 Bibliothèque Universitaire 1", "station_latitude": 46.152408599899999, "station_longitude": -1.1535240412000001, "velos_disponibles": 5, "accroches_libres": 9, "nombre_emplacements": 14, "geo_point_2d": "[-1.15352 46.15241]" }, "geometry": { "type": "Point", "coordinates": [ -128409.259019856952364, 5804806.758926895447075 ] } },
{ "type": "Feature", "properties": { "station_nom": "07 Préfecture", "station_latitude": 46.157024383500001, "station_longitude": -1.1568200588, "velos_disponibles": 7, "accroches_libres": 3, "nombre_emplacements": 10, "geo_point_2d": "[-1.15682 46.15702]" }, "geometry": { "type": "Point", "coordinates": [ -128776.61333947473031, 5805547.588886928744614 ] } },
{ "type": "Feature", "properties": { "station_nom": "25 IUT 2", "station_latitude": 46.142047882100002, "station_longitude": -1.1525580883, "velos_disponibles": 2, "accroches_libres": 6, "nombre_emplacements": 8, "geo_point_2d": "[-1.15256 46.14205]" }, "geometry": { "type": "Point", "coordinates": [ -128302.392308695387328, 5803142.126665816642344 ] } },
{ "type": "Feature", "properties": { "station_nom": "02 Quai Valin 1", "station_latitude": 46.157836914100002, "station_longitude": -1.1506329775, "velos_disponibles": 8, "accroches_libres": 0, "nombre_emplacements": 8, "geo_point_2d": "[-1.15063 46.15784]" }, "geometry": { "type": "Point", "coordinates": [ -128087.545691464372794, 5805679.369914926588535 ] } },
{ "type": "Feature", "properties": { "station_nom": "23 Place Cacaud 1", "station_latitude": 46.163719177200001, "station_longitude": -1.1469099522, "velos_disponibles": 5, "accroches_libres": 1, "nombre_emplacements": 6, "geo_point_2d": "[-1.14691 46.16372]" }, "geometry": { "type": "Point", "coordinates": [ -127673.437185713395593, 5806624.393846603110433 ] } },
{ "type": "Feature", "properties": { "station_nom": "25 IUT 1", "station_latitude": 46.142063140899999, "station_longitude": -1.1526050568, "velos_disponibles": 1, "accroches_libres": 7, "nombre_emplacements": 8, "geo_point_2d": "[-1.15261 46.14206]" }, "geometry": { "type": "Point", "coordinates": [ -128307.95828323502792, 5803143.733302670530975 ] } },
{ "type": "Feature", "properties": { "station_nom": "20 Plage des Minimes 4", "station_latitude": 46.141342163099999, "station_longitude": -1.170386672, "velos_disponibles": 1, "accroches_libres": 9, "nombre_emplacements": 10, "geo_point_2d": "[-1.17039 46.14134]" }, "geometry": { "type": "Point", "coordinates": [ -130287.218829539458966, 5803028.056195132434368 ] } },
{ "type": "Feature", "properties": { "station_nom": "12 Piscine", "station_latitude": 46.168697357200003, "station_longitude": -1.153578043, "velos_disponibles": 7, "accroches_libres": 3, "nombre_emplacements": 10, "geo_point_2d": "[-1.15358 46.1687 ]" }, "geometry": { "type": "Point", "coordinates": [ -128415.938189304535626, 5807424.850259539671242 ] } },
{ "type": "Feature", "properties": { "station_nom": "09 Office de Tourisme (Gabut) 1", "station_latitude": 46.155727386499997, "station_longitude": -1.1492489576, "velos_disponibles": 8, "accroches_libres": 2, "nombre_emplacements": 10, "geo_point_2d": "[-1.14925 46.15573]" }, "geometry": { "type": "Point", "coordinates": [ -127933.924794169666711, 5805340.278805313631892 ] } },
{ "type": "Feature", "properties": { "station_nom": "60 Commissariat", "station_latitude": 46.169128418, "station_longitude": -1.1467950344, "velos_disponibles": 5, "accroches_libres": 3, "nombre_emplacements": 8, "geo_point_2d": "[-1.1468  46.16913]" }, "geometry": { "type": "Point", "coordinates": [ -127661.192041726142634, 5807493.969372728839517 ] } },
{ "type": "Feature", "properties": { "station_nom": "108 Vaucanson", "station_latitude": 46.165397644000002, "station_longitude": -1.1028519869, "velos_disponibles": 4, "accroches_libres": 10, "nombre_emplacements": 14, "geo_point_2d": "[-1.10285 46.1654 ]" }, "geometry": { "type": "Point", "coordinates": [ -122768.700421361776534, 5806894.41923582740128 ] } },
{ "type": "Feature", "properties": { "station_nom": "28 Maison du Port La Pallice", "station_latitude": 46.160541534399997, "station_longitude": -1.2188580036000001, "velos_disponibles": 4, "accroches_libres": 4, "nombre_emplacements": 8, "geo_point_2d": "[-1.21886 46.16054]" }, "geometry": { "type": "Point", "coordinates": [ -135682.874548289430095, 5806113.296935208141804 ] } },
{ "type": "Feature", "properties": { "station_nom": "29 Mairie Annexe de Laleu", "station_latitude": 46.167980194099997, "station_longitude": -1.2001930475, "velos_disponibles": 0, "accroches_libres": 0, "nombre_emplacements": 8, "geo_point_2d": "[-1.20019 46.16798]" }, "geometry": { "type": "Point", "coordinates": [ -133604.539655179018155, 5807309.117140308953822 ] } },
{ "type": "Feature", "properties": { "station_nom": "30 Ludothèque de Mireuil", "station_latitude": 46.169979095499997, "station_longitude": -1.1774040461, "velos_disponibles": 4, "accroches_libres": 4, "nombre_emplacements": 8, "geo_point_2d": "[-1.1774  46.16998]" }, "geometry": { "type": "Point", "coordinates": [ -131067.568460000315099, 5807630.601767661981285 ] } },
{ "type": "Feature", "properties": { "station_nom": "31 Mairie Annexe de Mireuil", "station_latitude": 46.1666679382, "station_longitude": -1.178888917, "velos_disponibles": 1, "accroches_libres": 9, "nombre_emplacements": 10, "geo_point_2d": "[-1.17889 46.16667]" }, "geometry": { "type": "Point", "coordinates": [ -131233.434501282288693, 5807098.551044961437583 ] } },
{ "type": "Feature", "properties": { "station_nom": "32 Place St Maurice", "station_latitude": 46.164344787600001, "station_longitude": -1.1763019562000001, "velos_disponibles": 1, "accroches_libres": 9, "nombre_emplacements": 10, "geo_point_2d": "[-1.1763  46.16434]" }, "geometry": { "type": "Point", "coordinates": [ -130945.117020127683645, 5806724.045113520696759 ] } },
{ "type": "Feature", "properties": { "station_nom": "33 Marché de Port Neuf", "station_latitude": 46.159378051799997, "station_longitude": -1.1798180342, "velos_disponibles": 0, "accroches_libres": 0, "nombre_emplacements": 8, "geo_point_2d": "[-1.17982 46.15938]" }, "geometry": { "type": "Point", "coordinates": [ -131336.961627720040269, 5805926.866421294398606 ] } },
{ "type": "Feature", "properties": { "station_nom": "34 Maison de l'Emploi", "station_latitude": 46.168651580800002, "station_longitude": -1.1688580513, "velos_disponibles": 5, "accroches_libres": 3, "nombre_emplacements": 8, "geo_point_2d": "[-1.16886 46.16865]" }, "geometry": { "type": "Point", "coordinates": [ -130116.900008625743794, 5807416.813188421539962 ] } },
{ "type": "Feature", "properties": { "station_nom": "37 Plage de la Concurrence 1", "station_latitude": 46.155780792199998, "station_longitude": -1.1607379913, "velos_disponibles": 2, "accroches_libres": 8, "nombre_emplacements": 10, "geo_point_2d": "[-1.16074 46.15578]" }, "geometry": { "type": "Point", "coordinates": [ -129212.985743384371744, 5805348.313989265821874 ] } },
{ "type": "Feature", "properties": { "station_nom": "37 Plage de la Concurrence 2", "station_latitude": 46.155700683600003, "station_longitude": -1.160599947, "velos_disponibles": 4, "accroches_libres": 6, "nombre_emplacements": 10, "geo_point_2d": "[-1.1606 46.1557]" }, "geometry": { "type": "Point", "coordinates": [ -129197.401014673319878, 5805335.457698450423777 ] } },
{ "type": "Feature", "properties": { "station_nom": "39 Lycée Vieljeux", "station_latitude": 46.176708221399998, "station_longitude": -1.1512569189, "velos_disponibles": 1, "accroches_libres": 9, "nombre_emplacements": 10, "geo_point_2d": "[-1.15126 46.17671]" }, "geometry": { "type": "Point", "coordinates": [ -128157.676970664120745, 5808712.483399057760835 ] } },
{ "type": "Feature", "properties": { "station_nom": "40 Cité Administrative Mangin", "station_latitude": 46.167320251500001, "station_longitude": -1.140437007, "velos_disponibles": 4, "accroches_libres": 6, "nombre_emplacements": 10, "geo_point_2d": "[-1.14044 46.16732]" }, "geometry": { "type": "Point", "coordinates": [ -126953.200080280890688, 5807203.029778456315398 ] } },
{ "type": "Feature", "properties": { "station_nom": "42 LEP de Rompsay", "station_latitude": 46.160789489700001, "station_longitude": -1.1276119947000001, "velos_disponibles": 8, "accroches_libres": 4, "nombre_emplacements": 12, "geo_point_2d": "[-1.12761 46.16079]" }, "geometry": { "type": "Point", "coordinates": [ -125524.971013403206598, 5806153.476440104655921 ] } },
{ "type": "Feature", "properties": { "station_nom": "43 Mairie Annexe de Villeneuve", "station_latitude": 46.151836395300002, "station_longitude": -1.1227719784000001, "velos_disponibles": 6, "accroches_libres": 2, "nombre_emplacements": 8, "geo_point_2d": "[-1.12277 46.15184]" }, "geometry": { "type": "Point", "coordinates": [ -124986.18467796377081, 5804715.163871700875461 ] } },
{ "type": "Feature", "properties": { "station_nom": "44 Centre Cial. de Villeneuve", "station_latitude": 46.152099609399997, "station_longitude": -1.1250940561, "velos_disponibles": 6, "accroches_libres": 2, "nombre_emplacements": 8, "geo_point_2d": "[-1.12509 46.1521 ]" }, "geometry": { "type": "Point", "coordinates": [ -125244.445896604156587, 5804756.94395464938134 ] } },
{ "type": "Feature", "properties": { "station_nom": "45 Parking Jean-Moulin", "station_latitude": 46.152805328399999, "station_longitude": -1.1397533417000001, "velos_disponibles": 6, "accroches_libres": 8, "nombre_emplacements": 14, "geo_point_2d": "[-1.13975 46.15281]" }, "geometry": { "type": "Point", "coordinates": [ -126876.389631633559475, 5804871.036725049838424 ] } },
{ "type": "Feature", "properties": { "station_nom": "46 Eglise de Tasdon", "station_latitude": 46.1484375, "station_longitude": -1.1439870596, "velos_disponibles": 5, "accroches_libres": 3, "nombre_emplacements": 8, "geo_point_2d": "[-1.14399 46.14844]" }, "geometry": { "type": "Point", "coordinates": [ -127348.384272597031668, 5804168.827106194570661 ] } },
{ "type": "Feature", "properties": { "station_nom": "21 Technoforum 2", "station_latitude": 46.148273468, "station_longitude": -1.153522253, "velos_disponibles": 5, "accroches_libres": 3, "nombre_emplacements": 8, "geo_point_2d": "[-1.15352 46.14827]" }, "geometry": { "type": "Point", "coordinates": [ -128409.259019856952364, 5804141.511153793893754 ] } },
{ "type": "Feature", "properties": { "station_nom": "48 Plage des Minimes 1", "station_latitude": 46.141330719000003, "station_longitude": -1.1703159809000001, "velos_disponibles": 6, "accroches_libres": 4, "nombre_emplacements": 10, "geo_point_2d": "[-1.17032 46.14133]" }, "geometry": { "type": "Point", "coordinates": [ -130279.426465183918481, 5803026.449579291045666 ] } },
{ "type": "Feature", "properties": { "station_nom": "48 Plage des Minimes 2", "station_latitude": 46.141422271700002, "station_longitude": -1.1704269648000001, "velos_disponibles": 2, "accroches_libres": 4, "nombre_emplacements": 6, "geo_point_2d": "[-1.17043 46.14142]" }, "geometry": { "type": "Point", "coordinates": [ -130291.671609171200544, 5803040.909132377244532 ] } },
{ "type": "Feature", "properties": { "station_nom": "24 EIGSI 2", "station_latitude": 46.140327453600001, "station_longitude": -1.1537461281000001, "velos_disponibles": 6, "accroches_libres": 2, "nombre_emplacements": 8, "geo_point_2d": "[-1.15375 46.14033]" }, "geometry": { "type": "Point", "coordinates": [ -128434.8625027393864, 5802865.789468645118177 ] } },
{ "type": "Feature", "properties": { "station_nom": "51 Gymnase Universitaire 1", "station_latitude": 46.138782501199998, "station_longitude": -1.1450179815, "velos_disponibles": 2, "accroches_libres": 10, "nombre_emplacements": 12, "geo_point_2d": "[-1.14502 46.13878]" }, "geometry": { "type": "Point", "coordinates": [ -127463.043348114093533, 5802616.772063625045121 ] } },
{ "type": "Feature", "properties": { "station_nom": "38 Parc Franck Delmas", "station_latitude": 46.155807495099999, "station_longitude": -1.1707669497, "velos_disponibles": 3, "accroches_libres": 5, "nombre_emplacements": 8, "geo_point_2d": "[-1.17077 46.15581]" }, "geometry": { "type": "Point", "coordinates": [ -130329.520236040916643, 5805353.135103139095008 ] } },
{ "type": "Feature", "properties": { "station_nom": "53 Les Parcs", "station_latitude": 46.162334442099997, "station_longitude": -1.1590410471000001, "velos_disponibles": 3, "accroches_libres": 5, "nombre_emplacements": 8, "geo_point_2d": "[-1.15904 46.16233]" }, "geometry": { "type": "Point", "coordinates": [ -129023.742609035820351, 5806400.986216487362981 ] } },
{ "type": "Feature", "properties": { "station_nom": "52 Port de Pêche", "station_latitude": 46.149444580100003, "station_longitude": -1.2208333015, "velos_disponibles": 6, "accroches_libres": 4, "nombre_emplacements": 10, "geo_point_2d": "[-1.22083 46.14944]" }, "geometry": { "type": "Point", "coordinates": [ -135902.173945152171655, 5804329.51088688429445 ] } },
{ "type": "Feature", "properties": { "station_nom": "36 Eglise de La Genette", "station_latitude": 46.160671234100001, "station_longitude": -1.1716059446, "velos_disponibles": 2, "accroches_libres": 6, "nombre_emplacements": 8, "geo_point_2d": "[-1.17161 46.16067]" }, "geometry": { "type": "Point", "coordinates": [ -130423.028608307256945, 5806134.190254971385002 ] } },
{ "type": "Feature", "properties": { "station_nom": "109 P+R Simone Veil", "station_latitude": 46.143051147500003, "station_longitude": -1.1267182827, "velos_disponibles": 8, "accroches_libres": 6, "nombre_emplacements": 14, "geo_point_2d": "[-1.12672 46.14305]" }, "geometry": { "type": "Point", "coordinates": [ -125425.896666597196599, 5803302.791795644909143 ] } },
{ "type": "Feature", "properties": { "station_nom": "13 Médiathèque Michel Crépeau 2", "station_latitude": 46.153770446800003, "station_longitude": -1.1527416706, "velos_disponibles": 8, "accroches_libres": 0, "nombre_emplacements": 8, "geo_point_2d": "[-1.15274 46.15377]" }, "geometry": { "type": "Point", "coordinates": [ -128322.429817038180772, 5805025.30534671805799 ] } },
{ "type": "Feature", "properties": { "station_nom": "08 Vieux Port 2", "station_latitude": 46.156867980999998, "station_longitude": -1.153873086, "velos_disponibles": 8, "accroches_libres": 6, "nombre_emplacements": 14, "geo_point_2d": "[-1.15387 46.15687]" }, "geometry": { "type": "Point", "coordinates": [ -128448.220841634567478, 5805523.482813788577914 ] } },
{ "type": "Feature", "properties": { "station_nom": "47 Institut Confucius de Chine", "station_latitude": 46.14087677, "station_longitude": -1.1697419882, "velos_disponibles": 2, "accroches_libres": 10, "nombre_emplacements": 12, "geo_point_2d": "[-1.16974 46.14088]" }, "geometry": { "type": "Point", "coordinates": [ -130214.861160523825674, 5802954.152168399654329 ] } },
{ "type": "Feature", "properties": { "station_nom": "20 Faculté de Sciences 3", "station_latitude": 46.146636962899997, "station_longitude": -1.1578561068, "velos_disponibles": 0, "accroches_libres": 0, "nombre_emplacements": 10, "geo_point_2d": "[-1.15786 46.14664]" }, "geometry": { "type": "Point", "coordinates": [ -128892.385609899720293, 5803879.603657174855471 ] } },
{ "type": "Feature", "properties": { "station_nom": "59 Place de Lafond", "station_latitude": 46.173881530800003, "station_longitude": -1.1457049847, "velos_disponibles": 7, "accroches_libres": 2, "nombre_emplacements": 9, "geo_point_2d": "[-1.1457  46.17388]" }, "geometry": { "type": "Point", "coordinates": [ -127538.74060185351118, 5808257.530415683053434 ] } },
{ "type": "Feature", "properties": { "station_nom": "03 Arsenal 2", "station_latitude": 46.159915924099998, "station_longitude": -1.1486910582000001, "velos_disponibles": 1, "accroches_libres": 7, "nombre_emplacements": 8, "geo_point_2d": "[-1.14869 46.15992]" }, "geometry": { "type": "Point", "coordinates": [ -127871.58587932541559, 5806013.652550871483982 ] } },
{ "type": "Feature", "properties": { "station_nom": "02 Quai valin 2", "station_latitude": 46.156555175800001, "station_longitude": -1.1497410536, "velos_disponibles": 4, "accroches_libres": 4, "nombre_emplacements": 8, "geo_point_2d": "[-1.14974 46.15656]" }, "geometry": { "type": "Point", "coordinates": [ -127988.471344658362796, 5805473.66380419395864 ] } },
{ "type": "Feature", "properties": { "station_nom": "14 Bibliothèque Universitaire 2", "station_latitude": 46.152294158899998, "station_longitude": -1.1539160013, "velos_disponibles": 7, "accroches_libres": 3, "nombre_emplacements": 10, "geo_point_2d": "[-1.15392 46.15229]" }, "geometry": { "type": "Point", "coordinates": [ -128453.786816174251726, 5804787.475678547285497 ] } },
{ "type": "Feature", "properties": { "station_nom": "21 Technoforum 3", "station_latitude": 46.148277282700001, "station_longitude": -1.153455615, "velos_disponibles": 4, "accroches_libres": 4, "nombre_emplacements": 8, "geo_point_2d": "[-1.15346 46.14828]" }, "geometry": { "type": "Point", "coordinates": [ -128402.579850409325445, 5804143.117972189560533 ] } },
{ "type": "Feature", "properties": { "station_nom": "09 Office de Tourisme (Gabut) 2", "station_latitude": 46.155735015899999, "station_longitude": -1.1492429972, "velos_disponibles": 8, "accroches_libres": 2, "nombre_emplacements": 10, "geo_point_2d": "[-1.14924 46.15574]" }, "geometry": { "type": "Point", "coordinates": [ -127932.811599261724041, 5805341.885841521434486 ] } },
{ "type": "Feature", "properties": { "station_nom": "06 Maison de la Mobilité 2", "station_latitude": 46.162368774400001, "station_longitude": -1.1536861658, "velos_disponibles": 5, "accroches_libres": 5, "nombre_emplacements": 10, "geo_point_2d": "[-1.15369 46.16237]" }, "geometry": { "type": "Point", "coordinates": [ -128428.183333291788585, 5806407.415134161710739 ] } },
{ "type": "Feature", "properties": { "station_nom": "24 Plage des Minimes 3", "station_latitude": 46.141342163099999, "station_longitude": -1.170386672, "velos_disponibles": 0, "accroches_libres": 0, "nombre_emplacements": 8, "geo_point_2d": "[-1.17039 46.14134]" }, "geometry": { "type": "Point", "coordinates": [ -130287.218829539458966, 5803028.056195132434368 ] } },
{ "type": "Feature", "properties": { "station_nom": "51 Gymnase Universitaire 2", "station_latitude": 46.138446807900003, "station_longitude": -1.1450079679, "velos_disponibles": 2, "accroches_libres": 6, "nombre_emplacements": 8, "geo_point_2d": "[-1.14501 46.13845]" }, "geometry": { "type": "Point", "coordinates": [ -127461.930153206179966, 5802563.756359900347888 ] } },
{ "type": "Feature", "properties": { "station_nom": "15 Office de tourisme (Simenon) 1", "station_latitude": 46.155036926299999, "station_longitude": -1.1499530077, "velos_disponibles": 10, "accroches_libres": 2, "nombre_emplacements": 12, "geo_point_2d": "[-1.14995 46.15504]" }, "geometry": { "type": "Point", "coordinates": [ -128011.848437724955147, 5805229.394012357108295 ] } },
{ "type": "Feature", "properties": { "station_nom": "25 IUT 3", "station_latitude": 46.142040252699999, "station_longitude": -1.1525061131000001, "velos_disponibles": 0, "accroches_libres": 0, "nombre_emplacements": 8, "geo_point_2d": "[-1.15251 46.14204]" }, "geometry": { "type": "Point", "coordinates": [ -128296.82633415570308, 5803140.520029256120324 ] } },
{ "type": "Feature", "properties": { "station_nom": "57 Marché de la Pallice", "station_latitude": 46.161277771000002, "station_longitude": -1.2072759867, "velos_disponibles": 0, "accroches_libres": 0, "nombre_emplacements": 8, "geo_point_2d": "[-1.20728 46.16128]" }, "geometry": { "type": "Point", "coordinates": [ -134393.794844903284684, 5806232.228799294680357 ] } },
{ "type": "Feature", "properties": { "station_nom": "58 Digue du Bout Blanc", "station_latitude": 46.1485328674, "station_longitude": -1.1609539986, "velos_disponibles": 5, "accroches_libres": 7, "nombre_emplacements": 12, "geo_point_2d": "[-1.16095 46.14853]" }, "geometry": { "type": "Point", "coordinates": [ -129236.362836450934992, 5804183.288526915945113 ] } },
{ "type": "Feature", "properties": { "station_nom": "61 Patte d'Oie", "station_latitude": 46.166538238500003, "station_longitude": -1.1376219988, "velos_disponibles": 4, "accroches_libres": 6, "nombre_emplacements": 10, "geo_point_2d": "[-1.13762 46.16654]" }, "geometry": { "type": "Point", "coordinates": [ -126639.27911624389526, 5807077.655446408316493 ] } },
{ "type": "Feature", "properties": { "station_nom": "62 Aquarium 2", "station_latitude": 46.153499603299998, "station_longitude": -1.1501166821, "velos_disponibles": 8, "accroches_libres": 2, "nombre_emplacements": 10, "geo_point_2d": "[-1.15012 46.1535 ]" }, "geometry": { "type": "Point", "coordinates": [ -128030.772751159791369, 5804981.917024880647659 ] } },
{ "type": "Feature", "properties": { "station_nom": "62 Aquarium 1", "station_latitude": 46.1526451111, "station_longitude": -1.1499019861, "velos_disponibles": 8, "accroches_libres": 0, "nombre_emplacements": 8, "geo_point_2d": "[-1.1499  46.15265]" }, "geometry": { "type": "Point", "coordinates": [ -128006.282463185270899, 5804845.325549726374447 ] } },
{ "type": "Feature", "properties": { "station_nom": "63 08 mai 1945", "station_latitude": 46.1832695007, "station_longitude": -1.1520750523000001, "velos_disponibles": 8, "accroches_libres": 6, "nombre_emplacements": 14, "geo_point_2d": "[-1.15208 46.18327]" }, "geometry": { "type": "Point", "coordinates": [ -128248.958953114619362, 5809767.164109471254051 ] } },
{ "type": "Feature", "properties": { "station_nom": "64 Aéroport", "station_latitude": 46.1757583618, "station_longitude": -1.1952420473000001, "velos_disponibles": 6, "accroches_libres": 2, "nombre_emplacements": 8, "geo_point_2d": "[-1.19524 46.17576]" }, "geometry": { "type": "Point", "coordinates": [ -133053.508175752329407, 5808559.758055556565523 ] } },
{ "type": "Feature", "properties": { "station_nom": "65 Alstom", "station_latitude": 46.136680603000002, "station_longitude": -1.1249400377000001, "velos_disponibles": 7, "accroches_libres": 7, "nombre_emplacements": 14, "geo_point_2d": "[-1.12494 46.13668]" }, "geometry": { "type": "Point", "coordinates": [ -125227.747972985176602, 5802279.404825815930963 ] } },
{ "type": "Feature", "properties": { "station_nom": "66 Auberge de Jeunesse", "station_latitude": 46.143730163599997, "station_longitude": -1.161906004, "velos_disponibles": 5, "accroches_libres": 5, "nombre_emplacements": 10, "geo_point_2d": "[-1.16191 46.14373]" }, "geometry": { "type": "Point", "coordinates": [ -129343.229547612485476, 5803412.04575087223202 ] } },
{ "type": "Feature", "properties": { "station_nom": "67 Beauregard", "station_latitude": 46.175327301000003, "station_longitude": -1.132666111, "velos_disponibles": 0, "accroches_libres": 0, "nombre_emplacements": 14, "geo_point_2d": "[-1.13267 46.17533]" }, "geometry": { "type": "Point", "coordinates": [ -126088.247636817177408, 5808490.630609569139779 ] } },
{ "type": "Feature", "properties": { "station_nom": "68 Centre Commercial Beaulieu", "station_latitude": 46.174030304, "station_longitude": -1.1175500154, "velos_disponibles": 2, "accroches_libres": 8, "nombre_emplacements": 10, "geo_point_2d": "[-1.11755 46.17403]" }, "geometry": { "type": "Point", "coordinates": [ -124405.096936022877344, 5808281.643943831324577 ] } },
{ "type": "Feature", "properties": { "station_nom": "69 Centre social vent des lles", "station_latitude": 46.163745880100002, "station_longitude": -1.2098499537, "velos_disponibles": 3, "accroches_libres": 5, "nombre_emplacements": 8, "geo_point_2d": "[-1.20985 46.16375]" }, "geometry": { "type": "Point", "coordinates": [ -134679.885936242033495, 5806629.21565624512732 ] } },
{ "type": "Feature", "properties": { "station_nom": "70 Clinique de l'Atlantique", "station_latitude": 46.173686981199999, "station_longitude": -1.1268860102, "velos_disponibles": 2, "accroches_libres": 6, "nombre_emplacements": 8, "geo_point_2d": "[-1.12689 46.17369]" }, "geometry": { "type": "Point", "coordinates": [ -125444.820980032047373, 5808226.986707779578865 ] } },
{ "type": "Feature", "properties": { "station_nom": "71 Clos Margat", "station_latitude": 46.1573219299, "station_longitude": -1.1246000528, "velos_disponibles": 2, "accroches_libres": 6, "nombre_emplacements": 8, "geo_point_2d": "[-1.1246  46.15732]" }, "geometry": { "type": "Point", "coordinates": [ -125189.899346115475055, 5805595.801230343058705 ] } },
{ "type": "Feature", "properties": { "station_nom": "72 Stade de Périgny", "station_latitude": 46.155174255399999, "station_longitude": -1.084125042, "velos_disponibles": 2, "accroches_libres": 4, "nombre_emplacements": 6, "geo_point_2d": "[-1.08413 46.15517]" }, "geometry": { "type": "Point", "coordinates": [ -120684.799553711680346, 5805250.28524386510253 ] } },
{ "type": "Feature", "properties": { "station_nom": "73 Denfert Rochereau", "station_latitude": 46.164417266800001, "station_longitude": -1.1976380348, "velos_disponibles": 0, "accroches_libres": 0, "nombre_emplacements": 8, "geo_point_2d": "[-1.19764 46.16442]" }, "geometry": { "type": "Point", "coordinates": [ -133320.674953656154685, 5806736.903423314914107 ] } },
{ "type": "Feature", "properties": { "station_nom": "77 Gare d'Aytré", "station_latitude": 46.127563476600002, "station_longitude": -1.1276569366, "velos_disponibles": 7, "accroches_libres": 1, "nombre_emplacements": 8, "geo_point_2d": "[-1.12766 46.12756]" }, "geometry": { "type": "Point", "coordinates": [ -125530.536987942890846, 5800814.416349902749062 ] } },
{ "type": "Feature", "properties": { "station_nom": "56 Hôpital St Louis", "station_latitude": 46.158271789600001, "station_longitude": -1.1446679831, "velos_disponibles": 7, "accroches_libres": 3, "nombre_emplacements": 10, "geo_point_2d": "[-1.14467 46.15827]" }, "geometry": { "type": "Point", "coordinates": [ -127424.081526336478419, 5805748.475385256111622 ] } },
{ "type": "Feature", "properties": { "station_nom": "79 Les Corsaires", "station_latitude": 46.168788909900002, "station_longitude": -1.1717710495, "velos_disponibles": 3, "accroches_libres": 5, "nombre_emplacements": 8, "geo_point_2d": "[-1.17177 46.16879]" }, "geometry": { "type": "Point", "coordinates": [ -130440.839726834165049, 5807439.31700595933944 ] } },
{ "type": "Feature", "properties": { "station_nom": "80 La Pommeraie", "station_latitude": 46.1547813416, "station_longitude": -1.0960866213, "velos_disponibles": 1, "accroches_libres": 7, "nombre_emplacements": 8, "geo_point_2d": "[-1.09609 46.15478]" }, "geometry": { "type": "Point", "coordinates": [ -122016.180663599239779, 5805187.611697397194803 ] } },
{ "type": "Feature", "properties": { "station_nom": "81 Lab Intech", "station_latitude": 46.185073852499997, "station_longitude": -1.1473480463000001, "velos_disponibles": 4, "accroches_libres": 6, "nombre_emplacements": 10, "geo_point_2d": "[-1.14735 46.18507]" }, "geometry": { "type": "Point", "coordinates": [ -127722.417761662436533, 5810056.580209532752633 ] } },
{ "type": "Feature", "properties": { "station_nom": "82 Lieutenant Bernier", "station_latitude": 46.172988891599999, "station_longitude": -1.1611829996, "velos_disponibles": 4, "accroches_libres": 4, "nombre_emplacements": 8, "geo_point_2d": "[-1.16118 46.17299]" }, "geometry": { "type": "Point", "coordinates": [ -129261.966319333412685, 5808114.458168141543865 ] } },
{ "type": "Feature", "properties": { "station_nom": "83 Lycée Hotelier", "station_latitude": 46.144172668499998, "station_longitude": -1.1598930359, "velos_disponibles": 0, "accroches_libres": 0, "nombre_emplacements": 8, "geo_point_2d": "[-1.15989 46.14417]" }, "geometry": { "type": "Point", "coordinates": [ -129118.364176210103324, 5803482.740205712616444 ] } },
{ "type": "Feature", "properties": { "station_nom": "84 Mairie d'Aytré", "station_latitude": 46.133708953899998, "station_longitude": -1.1155769825, "velos_disponibles": 3, "accroches_libres": 5, "nombre_emplacements": 8, "geo_point_2d": "[-1.11558 46.13371]" }, "geometry": { "type": "Point", "coordinates": [ -124185.797539160121232, 5801802.293125179596245 ] } },
{ "type": "Feature", "properties": { "station_nom": "85 Mairie de Lagord", "station_latitude": 46.190460205100003, "station_longitude": -1.1535509825000001, "velos_disponibles": 6, "accroches_libres": 2, "nombre_emplacements": 8, "geo_point_2d": "[-1.15355 46.19046]" }, "geometry": { "type": "Point", "coordinates": [ -128412.598604580736719, 5810923.277321259491146 ] } },
{ "type": "Feature", "properties": { "station_nom": "86 Musée Maritime", "station_latitude": 46.149658203100003, "station_longitude": -1.1509350538000001, "velos_disponibles": 5, "accroches_libres": 3, "nombre_emplacements": 8, "geo_point_2d": "[-1.15094 46.14966]" }, "geometry": { "type": "Point", "coordinates": [ -128122.054733610289986, 5804364.86171040404588 ] } },
{ "type": "Feature", "properties": { "station_nom": "87 Normandin", "station_latitude": 46.141853332499998, "station_longitude": -1.1388549805, "velos_disponibles": 0, "accroches_libres": 0, "nombre_emplacements": 8, "geo_point_2d": "[-1.13885 46.14185]" }, "geometry": { "type": "Point", "coordinates": [ -126776.202089919592254, 5803109.99399003945291 ] } },
{ "type": "Feature", "properties": { "station_nom": "88 Oiseaux de Mer", "station_latitude": 46.183933258099998, "station_longitude": -1.1561770439000001, "velos_disponibles": 8, "accroches_libres": 0, "nombre_emplacements": 8, "geo_point_2d": "[-1.15618 46.18393]" }, "geometry": { "type": "Point", "coordinates": [ -128705.368865367025137, 5809873.282245883718133 ] } },
{ "type": "Feature", "properties": { "station_nom": "90 Porte Royale", "station_latitude": 46.162910461400003, "station_longitude": -1.1391090155000001, "velos_disponibles": 5, "accroches_libres": 3, "nombre_emplacements": 8, "geo_point_2d": "[-1.13911 46.16291]" }, "geometry": { "type": "Point", "coordinates": [ -126805.145157525868854, 5806494.205980219878256 ] } },
{ "type": "Feature", "properties": { "station_nom": "91 Sautel", "station_latitude": 46.169879913300001, "station_longitude": -1.1268320084000001, "velos_disponibles": 1, "accroches_libres": 7, "nombre_emplacements": 8, "geo_point_2d": "[-1.12683 46.16988]" }, "geometry": { "type": "Point", "coordinates": [ -125438.14181058446411, 5807614.527258664369583 ] } },
{ "type": "Feature", "properties": { "station_nom": "92 Stade Marcel Deflandre", "station_latitude": 46.157421112100003, "station_longitude": -1.1799082756, "velos_disponibles": 0, "accroches_libres": 0, "nombre_emplacements": 8, "geo_point_2d": "[-1.17991 46.15742]" }, "geometry": { "type": "Point", "coordinates": [ -131346.980381891422439, 5805611.872069893404841 ] } },
{ "type": "Feature", "properties": { "station_nom": "75 Europe", "station_latitude": 46.142196655299998, "station_longitude": -1.156883955, "velos_disponibles": 2, "accroches_libres": 6, "nombre_emplacements": 8, "geo_point_2d": "[-1.15688 46.1422 ]" }, "geometry": { "type": "Point", "coordinates": [ -128783.292508922313573, 5803166.226249253377318 ] } },
{ "type": "Feature", "properties": { "station_nom": "76 Géranium", "station_latitude": 46.164947509800001, "station_longitude": -1.1270079613, "velos_disponibles": 1, "accroches_libres": 7, "nombre_emplacements": 8, "geo_point_2d": "[-1.12701 46.16495]" }, "geometry": { "type": "Point", "coordinates": [ -125458.179318927257555, 5806822.090197991579771 ] } },
{ "type": "Feature", "properties": { "station_nom": "78 Jean Monnet", "station_latitude": 46.146350860600002, "station_longitude": -1.1526800394000001, "velos_disponibles": 2, "accroches_libres": 8, "nombre_emplacements": 10, "geo_point_2d": "[-1.15268 46.14635]" }, "geometry": { "type": "Point", "coordinates": [ -128315.750647590568406, 5803833.007430538535118 ] } },
{ "type": "Feature", "properties": { "station_nom": "89 Centre Aquatique Palmilud", "station_latitude": 46.1572036743, "station_longitude": -1.1002160311, "velos_disponibles": 6, "accroches_libres": 4, "nombre_emplacements": 10, "geo_point_2d": "[-1.10022 46.1572 ]" }, "geometry": { "type": "Point", "coordinates": [ -122475.930160575444461, 5805576.51626143604517 ] } },
{ "type": "Feature", "properties": { "station_nom": "93 Parc d'Activités des Trois Frères", "station_latitude": 46.159729003899997, "station_longitude": -1.195086956, "velos_disponibles": 3, "accroches_libres": 5, "nombre_emplacements": 8, "geo_point_2d": "[-1.19509 46.15973]" }, "geometry": { "type": "Point", "coordinates": [ -133036.810252133320319, 5805983.116593345068395 ] } },
{ "type": "Feature", "properties": { "station_nom": "18 Dames Blanches (St-Nicolas)", "station_latitude": 46.158435821499999, "station_longitude": -1.1497960091, "velos_disponibles": 1, "accroches_libres": 7, "nombre_emplacements": 8, "geo_point_2d": "[-1.1498  46.15844]" }, "geometry": { "type": "Point", "coordinates": [ -127995.150514105946058, 5805775.796301549300551 ] } },
{ "type": "Feature", "properties": { "station_nom": "74 B. Giraudeau - Archives", "station_latitude": 46.168159484900002, "station_longitude": -1.1850260496, "velos_disponibles": 1, "accroches_libres": 7, "nombre_emplacements": 8, "geo_point_2d": "[-1.18503 46.16816]" }, "geometry": { "type": "Point", "coordinates": [ -131916.936174752976513, 5807338.050278094597161 ] } },
{ "type": "Feature", "properties": { "station_nom": "19 La Rossignolette", "station_latitude": 46.165710449199999, "station_longitude": -1.1880249977, "velos_disponibles": 0, "accroches_libres": 0, "nombre_emplacements": 8, "geo_point_2d": "[-1.18802 46.16571]" }, "geometry": { "type": "Point", "coordinates": [ -132249.781452224880923, 5806944.246250523254275 ] } },
{ "type": "Feature", "properties": { "station_nom": "17 Dames Blanches (Maubec)", "station_latitude": 46.158740997300001, "station_longitude": -1.1501699686, "velos_disponibles": 7, "accroches_libres": 7, "nombre_emplacements": 14, "geo_point_2d": "[-1.15017 46.15874]" }, "geometry": { "type": "Point", "coordinates": [ -128036.338725699446513, 5805824.009889158420265 ] } },
{ "type": "Feature", "properties": { "station_nom": "94 Fief Rose", "station_latitude": 46.1736221313, "station_longitude": -1.1660730839, "velos_disponibles": 8, "accroches_libres": 2, "nombre_emplacements": 10, "geo_point_2d": "[-1.16607 46.17362]" }, "geometry": { "type": "Point", "coordinates": [ -129806.318629312503617, 5808215.73378936201334 ] } },
{ "type": "Feature", "properties": { "station_nom": "95 P+R Beaulieu", "station_latitude": 46.179149627699999, "station_longitude": -1.1033949852, "velos_disponibles": 4, "accroches_libres": 4, "nombre_emplacements": 8, "geo_point_2d": "[-1.10339 46.17915]" }, "geometry": { "type": "Point", "coordinates": [ -122828.812946390142315, 5809104.758478159084916 ] } },
{ "type": "Feature", "properties": { "station_nom": "96 Beaulieu - France", "station_latitude": 46.177352905299998, "station_longitude": -1.1169381142000001, "velos_disponibles": 3, "accroches_libres": 7, "nombre_emplacements": 10, "geo_point_2d": "[-1.11694 46.17735]" }, "geometry": { "type": "Point", "coordinates": [ -124337.19204663898563, 5808815.373539020307362 ] } },
{ "type": "Feature", "properties": { "station_nom": "99 Renaissance", "station_latitude": 46.168140411400003, "station_longitude": -1.1430555582, "velos_disponibles": 2, "accroches_libres": 6, "nombre_emplacements": 8, "geo_point_2d": "[-1.14306 46.16814]" }, "geometry": { "type": "Point", "coordinates": [ -127244.857146159294643, 5807334.835480333305895 ] } },
{ "type": "Feature", "properties": { "station_nom": "97 Rompsay", "station_latitude": 46.167591095, "station_longitude": -1.1116729975, "velos_disponibles": 6, "accroches_libres": 2, "nombre_emplacements": 8, "geo_point_2d": "[-1.11167 46.16759]" }, "geometry": { "type": "Point", "coordinates": [ -123750.538330158422468, 5807246.428999909199774 ] } },
{ "type": "Feature", "properties": { "station_nom": "98 Plaine des Jeux Colette Besson", "station_latitude": 46.155879974400001, "station_longitude": -1.1883519888, "velos_disponibles": 2, "accroches_libres": 6, "nombre_emplacements": 8, "geo_point_2d": "[-1.18835 46.15588]" }, "geometry": { "type": "Point", "coordinates": [ -132286.516884186654352, 5805364.38437906652689 ] } },
{ "type": "Feature", "properties": { "station_nom": "100 Malidor", "station_latitude": 46.1317634583, "station_longitude": -1.1049411297, "velos_disponibles": 6, "accroches_libres": 2, "nombre_emplacements": 8, "geo_point_2d": "[-1.10494 46.13176]" }, "geometry": { "type": "Point", "coordinates": [ -123001.358157119699172, 5801489.051960785873234 ] } },
{ "type": "Feature", "properties": { "station_nom": "101 Mairie de Puilboreau", "station_latitude": 46.1876182556, "station_longitude": -1.1188188791, "velos_disponibles": 4, "accroches_libres": 6, "nombre_emplacements": 10, "geo_point_2d": "[-1.11882 46.18762]" }, "geometry": { "type": "Point", "coordinates": [ -124546.472689330315916, 5810466.6025735065341 ] } },
{ "type": "Feature", "properties": { "station_nom": "50 Port des Minimes", "station_latitude": 46.140857696499999, "station_longitude": -1.1659016609, "velos_disponibles": 2, "accroches_libres": 6, "nombre_emplacements": 8, "geo_point_2d": "[-1.1659  46.14086]" }, "geometry": { "type": "Point", "coordinates": [ -129787.394315877652843, 5802950.938963850960135 ] } },
{ "type": "Feature", "properties": { "station_nom": "36 La Genette Guiton", "station_latitude": 46.159713745099999, "station_longitude": -1.1663149595, "velos_disponibles": 2, "accroches_libres": 6, "nombre_emplacements": 8, "geo_point_2d": "[-1.16631 46.15971]" }, "geometry": { "type": "Point", "coordinates": [ -129833.035307102880324, 5805979.902288158424199 ] } },
{ "type": "Feature", "properties": { "station_nom": "36 La Genette coligny", "station_latitude": 46.159835815400001, "station_longitude": -1.165825963, "velos_disponibles": 3, "accroches_libres": 2, "nombre_emplacements": 5, "geo_point_2d": "[-1.16583 46.15984]" }, "geometry": { "type": "Point", "coordinates": [ -129779.60195152212691, 5806000.795292745344341 ] } },
{ "type": "Feature", "properties": { "station_nom": "35 Aristide Briand", "station_latitude": 46.165981292700003, "station_longitude": -1.1641429663, "velos_disponibles": 4, "accroches_libres": 4, "nombre_emplacements": 8, "geo_point_2d": "[-1.16414 46.16598]" }, "geometry": { "type": "Point", "coordinates": [ -129591.472012081503635, 5806987.644201781600714 ] } },
{ "type": "Feature", "properties": { "station_nom": "03 Arsenal 3", "station_latitude": 46.159942627, "station_longitude": -1.1486922503000001, "velos_disponibles": 4, "accroches_libres": 4, "nombre_emplacements": 8, "geo_point_2d": "[-1.14869 46.15994]" }, "geometry": { "type": "Point", "coordinates": [ -127871.58587932541559, 5806016.866868325509131 ] } },
{ "type": "Feature", "properties": { "station_nom": "23 Place Cacaud 2", "station_latitude": 46.163719177200001, "station_longitude": -1.1469444036000001, "velos_disponibles": 6, "accroches_libres": 0, "nombre_emplacements": 6, "geo_point_2d": "[-1.14694 46.16372]" }, "geometry": { "type": "Point", "coordinates": [ -127676.7767704371945, 5806624.393846603110433 ] } },
{ "type": "Feature", "properties": { "station_nom": "41 Debussy", "station_latitude": 46.158546447799999, "station_longitude": -1.1354860067000001, "velos_disponibles": 0, "accroches_libres": 0, "nombre_emplacements": 8, "geo_point_2d": "[-1.13549 46.15855]" }, "geometry": { "type": "Point", "coordinates": [ -126402.168600854216493, 5805793.474586484953761 ] } },
{ "type": "Feature", "properties": { "station_nom": "49 Base nautique des Minimes", "station_latitude": 46.143634796100002, "station_longitude": -1.1666941643, "velos_disponibles": 4, "accroches_libres": 4, "nombre_emplacements": 8, "geo_point_2d": "[-1.16669 46.14363]" }, "geometry": { "type": "Point", "coordinates": [ -129875.336713604338001, 5803395.978908117860556 ] } },
{ "type": "Feature", "properties": { "station_nom": "27 Vaux de Foletier", "station_latitude": 46.140270233199999, "station_longitude": -1.1534700394, "velos_disponibles": 6, "accroches_libres": 4, "nombre_emplacements": 10, "geo_point_2d": "[-1.15347 46.14027]" }, "geometry": { "type": "Point", "coordinates": [ -128403.693045317268115, 5802856.149954799562693 ] } },
{ "type": "Feature", "properties": { "station_nom": "110 Gare La Rochelle / Marais de Tasdon", "station_latitude": 46.1532745361, "station_longitude": -1.141798377, "velos_disponibles": 4, "accroches_libres": 10, "nombre_emplacements": 14, "geo_point_2d": "[-1.1418  46.15327]" }, "geometry": { "type": "Point", "coordinates": [ -127104.594587759755086, 5804944.956770474091172 ] } },
{ "type": "Feature", "properties": { "station_nom": "55 Plage Chef de Baie", "station_latitude": 46.150428771999998, "station_longitude": -1.2055672407, "velos_disponibles": 0, "accroches_libres": 0, "nombre_emplacements": 14, "geo_point_2d": "[-1.20557 46.15043]" }, "geometry": { "type": "Point", "coordinates": [ -134203.438515646819724, 5804488.59070545155555 ] } },
{ "type": "Feature", "properties": { "station_nom": "111 P+R Greffières", "station_latitude": 46.191486358600002, "station_longitude": -1.1475311518, "velos_disponibles": 5, "accroches_libres": 7, "nombre_emplacements": 12, "geo_point_2d": "[-1.14753 46.19149]" }, "geometry": { "type": "Point", "coordinates": [ -127742.455270005215425, 5811088.908148679882288 ] } },
{ "type": "Feature", "properties": { "station_nom": "112 La Bourgne", "station_latitude": 46.161945343, "station_longitude": -1.092777729, "velos_disponibles": 5, "accroches_libres": 9, "nombre_emplacements": 14, "geo_point_2d": "[-1.09278 46.16195]" }, "geometry": { "type": "Point", "coordinates": [ -121647.71314907350461, 5806339.911731723695993 ] } },
{ "type": "Feature", "properties": { "station_nom": "113 P+R Périgny", "station_latitude": 46.156444549600003, "station_longitude": -1.1091666222000001, "velos_disponibles": 5, "accroches_libres": 9, "nombre_emplacements": 14, "geo_point_2d": "[-1.10917 46.15644]" }, "geometry": { "type": "Point", "coordinates": [ -123472.239603175243246, 5805454.379101635888219 ] } },
{ "type": "Feature", "properties": { "station_nom": "114 Jean Paul Sartre", "station_latitude": 46.1539459229, "station_longitude": -1.1166838408, "velos_disponibles": 7, "accroches_libres": 5, "nombre_emplacements": 12, "geo_point_2d": "[-1.11668 46.15395]" }, "geometry": { "type": "Point", "coordinates": [ -124308.248979032723582, 5805054.231012868694961 ] } },
{ "type": "Feature", "properties": { "station_nom": "87 Normandin - République", "station_latitude": 46.141666412399999, "station_longitude": -1.1399999857000001, "velos_disponibles": 5, "accroches_libres": 3, "nombre_emplacements": 8, "geo_point_2d": "[-1.14    46.14167]" }, "geometry": { "type": "Point", "coordinates": [ -126904.219504331849748, 5803081.074681639671326 ] } }
]
}
